,City,Lat,Lng,Max Temp,Humidity,Cloudiness,Wind Speed,Country,Date
0,ponta do sol,32.6667,-17.1,65.12,82,16,10.96,PT,1650914158
1,ushuaia,-54.8,-68.3,42.42,72,100,3.65,AR,1650913973
2,klaksvik,62.2266,-6.589,40.12,81,100,15.37,FO,1650914381
3,new norfolk,-42.7826,147.0587,50.88,86,91,2.13,AU,1650914162
4,chokurdakh,70.6333,147.9167,6.13,92,100,5.46,RU,1650914165
5,castro,-24.7911,-50.0119,76.62,54,0,3.96,BR,1650914252
6,codrington,-38.2667,141.9667,58.71,70,100,10.07,AU,1650914156
7,deogarh,21.5333,84.7333,79.83,36,0,2.77,IN,1650914420
8,kavaratti,10.5669,72.642,84.7,75,50,6.29,IN,1650913869
9,jalu,29.0331,21.5482,83.39,12,100,10.16,LY,1650914303
10,barrow,71.2906,-156.7887,12.22,79,100,11.5,US,1650914259
11,acapulco,16.8634,-99.8901,85.82,70,0,12.66,MX,1650914294
12,whitehorse,60.7161,-135.0538,43.11,78,75,3.44,CA,1650914421
13,mataura,-46.1927,168.8643,51.48,81,54,7.2,NZ,1650914153
14,lobo,13.6481,121.2112,79.95,86,46,7.85,PH,1650914421
15,hobart,-42.8794,147.3294,51.22,91,48,6.91,AU,1650914265
16,jamestown,42.097,-79.2353,80.24,44,40,13.8,US,1650914267
17,arraial do cabo,-22.9661,-42.0278,78.66,65,20,12.66,BR,1650914325
18,vetlanda,57.4289,15.0776,42.55,46,58,3.74,SE,1650914422
19,katsuura,35.1333,140.3,65.71,91,100,5.14,JP,1650914279
20,celestun,20.8667,-90.4,87.28,59,0,14.74,MX,1650914422
21,victoria,22.2855,114.1577,82.45,84,9,5.99,HK,1650913882
22,rikitea,-23.1203,-134.9692,76.87,73,100,16.13,PF,1650913891
23,constitucion,-35.3333,-72.4167,56.46,81,100,7.63,CL,1650914261
24,souillac,-20.5167,57.5167,75.67,70,35,15.01,MU,1650914059
25,te anau,-45.4167,167.7167,39.79,91,8,1.05,NZ,1650914273
26,lardos,36.0942,28.0157,64.22,74,16,9.13,GR,1650914423
27,hilo,19.7297,-155.09,77.29,90,75,8.05,US,1650914255
28,albany,42.6001,-73.9662,70.03,35,100,8.99,US,1650914023
29,san patricio,28.017,-97.5169,88.16,53,83,18.59,US,1650914302
30,meulaboh,4.1363,96.1285,76.86,90,100,3.47,ID,1650914274
31,bluff,-46.6,168.3333,51.8,64,100,24.74,NZ,1650914168
32,lavrentiya,65.5833,-171.0,20.53,85,98,6.58,RU,1650914163
33,airai,-8.9266,125.4092,57.56,77,75,0.76,TL,1650914277
34,lerwick,60.1545,-1.1494,44.6,78,97,15.41,GB,1650914424
35,punta arenas,-53.15,-70.9167,46.11,67,40,17.27,CL,1650914058
36,half moon bay,37.4636,-122.4286,76.91,65,0,5.75,US,1650914121
37,sitka,57.0531,-135.33,48.09,71,20,3.44,US,1650914293
38,pamekasan,-7.1568,113.4746,79.9,80,41,3.85,ID,1650914425
39,kaitangata,-46.2817,169.8464,47.73,72,19,12.84,NZ,1650914285
40,saskylakh,71.9167,114.0833,-7.82,100,100,3.8,RU,1650914286
41,neuquen,-38.9516,-68.0591,66.09,24,20,12.66,AR,1650914425
42,east london,-33.0153,27.9116,62.51,75,8,16.24,ZA,1650914059
43,baiyin,36.5583,104.2081,59.58,28,69,1.7,CN,1650914426
44,vaini,-21.2,-175.2,73.56,88,75,14.97,TO,1650913892
45,aguimes,27.9054,-15.4461,67.86,62,40,8.99,ES,1650914426
46,avarua,-21.2078,-159.775,78.85,89,100,5.75,CK,1650914275
47,bredasdorp,-34.5322,20.0403,55.74,72,0,2.39,ZA,1650914292
48,busselton,-33.65,115.3333,61.79,69,100,19.3,AU,1650914159
49,caravelas,-17.7125,-39.2481,82.06,66,4,6.73,BR,1650914427
50,rincon,32.296,-81.2354,81.95,41,40,3.44,US,1650914427
51,yellowknife,62.456,-114.3525,39.72,52,75,12.66,CA,1650914270
52,vilkaviskis,54.6517,23.0322,46.15,89,100,5.53,LT,1650914428
53,kodiak,57.79,-152.4072,44.11,53,75,9.22,US,1650914291
54,kokologo,12.1897,-1.8856,94.86,9,34,3.31,BF,1650914428
55,los llanos de aridane,28.6585,-17.9182,67.75,73,40,8.05,ES,1650914317
56,mbala,-8.8402,31.3659,60.94,95,100,5.01,ZM,1650914428
57,srednekolymsk,67.45,153.6833,0.91,98,100,2.44,RU,1650914429
58,lebu,-37.6167,-73.65,56.44,71,100,22.44,CL,1650914176
59,paamiut,61.994,-49.6678,31.42,89,100,12.46,GL,1650914308
60,pinar del rio,22.4175,-83.6981,87.37,44,9,14.63,CU,1650914429
61,nuuk,64.1835,-51.7216,32.61,74,75,4.61,GL,1650914405
62,ribeira grande,38.5167,-28.7,63.0,63,20,11.5,PT,1650914164
63,qaanaaq,77.484,-69.3632,11.61,70,79,5.08,GL,1650914260
64,cape town,-33.9258,18.4232,59.41,72,0,10.36,ZA,1650914160
65,solnechnyy,50.7214,136.6319,22.17,93,100,2.82,RU,1650914430
66,lahad datu,5.0268,118.327,76.19,94,100,4.27,MY,1650914430
67,boguchany,58.3814,97.4531,20.61,100,88,2.68,RU,1650914431
68,butaritari,3.0707,172.7902,79.52,84,39,13.67,KI,1650913915
69,pathardi,19.1667,75.1833,91.51,19,29,5.17,IN,1650914431
70,hit,33.6416,42.8251,77.07,29,94,6.87,IQ,1650914431
71,cidreira,-30.1811,-50.2056,75.34,70,76,12.91,BR,1650914254
72,bontang,0.1333,117.5,75.99,94,100,7.38,ID,1650914432
73,bolkhov,53.4433,36.0044,52.32,98,100,3.44,RU,1650914432
74,la ronge,55.1001,-105.2842,34.02,29,0,14.97,CA,1650914343
75,slonim,53.0867,25.3219,44.53,95,45,5.44,BY,1650914433
76,daru,-9.0763,143.2092,79.09,84,71,2.19,PG,1650914433
77,margate,51.3813,1.3862,48.87,82,75,8.01,GB,1650914433
78,sullana,-4.9039,-80.6853,87.35,44,31,9.26,PE,1650914434
79,hirara,24.8,125.2833,78.37,90,31,20.85,JP,1650914173
80,fortuna,40.5982,-124.1573,58.93,83,100,11.5,US,1650914321
81,comarapa,-17.9,-64.4833,66.47,75,45,7.63,BO,1650914434
82,pevek,69.7008,170.3133,9.57,87,100,2.06,RU,1650914250
83,ankazobe,-18.3167,47.1167,59.95,94,21,4.83,MG,1650914434
84,tasiilaq,65.6145,-37.6368,35.76,95,100,8.61,GL,1650914270
85,kapaa,22.0752,-159.319,78.78,76,75,17.27,US,1650914002
86,torbay,47.6666,-52.7314,41.88,94,100,17.27,CA,1650914267
87,sola,-13.8833,167.55,79.25,79,100,11.99,VU,1650914318
88,lithakia,37.7167,20.8333,58.37,80,100,6.15,GR,1650914270
89,hermanus,-34.4187,19.2345,52.81,71,0,5.5,ZA,1650913903
90,karaman,37.0833,33.25,60.39,27,6,9.42,TR,1650914333
91,mukhen,48.1,136.1,41.72,87,100,8.59,RU,1650914436
92,nikolskoye,59.7035,30.7861,41.72,97,100,4.81,RU,1650914250
93,medicine hat,50.0501,-110.6683,65.71,24,100,18.41,CA,1650914436
94,port hawkesbury,45.6169,-61.3485,54.9,80,100,8.05,CA,1650914397
95,nacala,-14.5428,40.6728,77.63,87,100,3.24,MZ,1650914436
96,berlevag,70.8578,29.0864,28.35,74,0,12.66,NO,1650914061
97,samarai,-10.6167,150.6667,82.58,78,100,13.4,PG,1650914341
98,hithadhoo,-0.6,73.0833,83.93,75,72,6.55,MV,1650914154
99,tazovskiy,67.4667,78.7,2.91,97,94,6.78,RU,1650914403
100,iquitos,-3.7481,-73.2472,87.84,62,75,5.75,PE,1650914437
101,antofagasta,-23.65,-70.4,65.48,75,100,8.75,CL,1650914301
102,guarapari,-20.6667,-40.4975,78.89,71,36,8.57,BR,1650914437
103,coquimbo,-29.9533,-71.3436,56.93,94,75,16.11,CL,1650914019
104,saldanha,-33.0117,17.9442,58.82,77,0,17.22,ZA,1650914354
105,arman,59.7,150.1667,23.25,72,100,10.04,RU,1650914344
106,adrar,20.5022,-10.0711,83.7,22,0,11.83,MR,1650914438
107,cine,37.6117,28.0614,60.21,61,7,1.99,TR,1650914438
108,logan lake,50.4998,-120.8025,49.84,49,8,17.02,CA,1650914439
109,nedjo,9.5046,35.5019,62.73,81,95,3.27,ET,1650914439
110,alofi,-19.0595,-169.9187,75.09,23,100,3.44,NU,1650914440
111,saint-philippe,-21.3585,55.7679,74.79,83,77,15.5,RE,1650914056
112,pokhara,28.2333,83.9833,72.48,27,0,8.19,NP,1650914440
113,miraflores,19.2167,-98.8083,79.56,27,76,4.43,MX,1650914383
114,selenduma,50.9131,106.2406,23.32,50,11,4.23,RU,1650914440
115,broome,42.2506,-75.833,74.62,48,100,10.0,US,1650914441
116,cottonwood,34.7392,-112.0099,78.37,11,4,4.0,US,1650914441
117,karoi,-16.8099,29.6925,64.35,73,8,2.39,ZW,1650914441
118,port elizabeth,-33.918,25.5701,59.31,90,7,5.99,ZA,1650913902
119,atuona,-9.8,-139.0333,78.12,79,26,15.68,PF,1650914154
120,tahta,26.7693,31.5021,83.52,20,52,8.14,EG,1650914346
121,carnarvon,-24.8667,113.6333,64.47,94,0,5.75,AU,1650914058
122,batemans bay,-35.7167,150.1833,56.55,91,95,3.96,AU,1650914442
123,asau,46.4333,26.4,54.52,81,1,6.51,RO,1650914281
124,dubrovka,53.6907,33.5071,50.02,97,100,6.46,RU,1650914442
125,baijiantan,45.6333,85.1833,54.23,69,100,7.78,CN,1650914443
126,cabo san lucas,22.8909,-109.9124,82.62,63,0,3.44,MX,1650914099
127,gillette,44.2911,-105.5022,47.05,47,0,11.99,US,1650914429
128,sarai naurang,32.8259,70.7814,83.88,25,0,1.34,PK,1650914443
129,grindavik,63.8424,-22.4338,45.07,81,75,5.75,IS,1650914375
130,gimli,50.6336,-96.9907,19.42,79,100,14.97,CA,1650914444
131,okhotsk,59.3833,143.3,21.15,81,58,10.65,RU,1650914444
132,dunedin,-45.8742,170.5036,50.81,61,23,15.01,NZ,1650914250
133,ponta delgada,37.7333,-25.6667,61.52,72,40,16.11,PT,1650914444
134,tiksi,71.6872,128.8694,-6.41,100,99,3.38,RU,1650914271
135,karratha,-20.7377,116.8463,76.3,72,100,7.34,AU,1650914445
136,lompoc,34.6391,-120.4579,85.78,57,0,16.11,US,1650913974
137,moa,20.6569,-74.9403,81.63,63,35,13.51,CU,1650914446
138,mahajanga,-15.7167,46.3167,83.08,61,97,8.61,MG,1650914353
139,luderitz,-26.6481,15.1594,59.41,62,0,16.64,NA,1650914259
140,flinders,-34.5833,150.8552,60.19,93,100,5.01,AU,1650913918
141,mar del plata,-38.0023,-57.5575,64.42,67,0,11.99,AR,1650914139
142,shakawe,-18.3667,21.85,73.58,42,82,3.47,BW,1650914446
143,north platte,41.1239,-100.7654,58.89,26,0,16.11,US,1650914447
144,kant,27.8,79.8,88.12,15,0,6.17,IN,1650914447
145,gedo,9.0167,37.45,53.42,93,100,1.68,ET,1650914179
146,vardo,70.3705,31.1107,30.18,93,75,24.16,NO,1650914000
147,amboasary,-25.0333,46.3833,72.41,82,84,4.61,MG,1650914447
148,dikson,73.5069,80.5464,3.56,100,100,3.13,RU,1650914271
149,tabou,4.423,-7.3528,80.2,77,100,4.79,CI,1650914448
150,garowe,8.4054,48.4845,79.27,58,66,14.67,SO,1650914448
151,altagracia de orituco,9.8601,-66.3814,86.0,56,99,6.46,VE,1650914448
152,clyde river,70.4692,-68.5914,8.83,92,100,21.85,CA,1650914261
153,sao joao da barra,-21.6403,-41.0511,80.69,71,8,10.36,BR,1650914158
154,tomatlan,19.9333,-105.25,89.87,38,0,9.93,MX,1650914380
155,husavik,66.0449,-17.3389,42.64,75,48,4.59,IS,1650914016
156,bathsheba,13.2167,-59.5167,75.81,100,75,14.97,BB,1650914347
157,cherskiy,68.75,161.3,20.14,82,100,3.74,RU,1650914280
158,safranbolu,41.2508,32.6942,59.76,68,98,3.18,TR,1650914449
159,mackay,-21.15,149.2,73.69,81,96,18.21,AU,1650914363
160,puerto carreno,6.189,-67.4859,90.01,54,100,2.91,CO,1650914412
161,micheweni,-4.9667,39.8333,80.47,83,61,7.29,TZ,1650914450
162,georgetown,5.4112,100.3354,80.53,92,20,4.61,MY,1650914270
163,yulara,-25.2406,130.9889,59.68,74,100,6.42,AU,1650914406
164,tuktoyaktuk,69.4541,-133.0374,17.6,79,20,5.75,CA,1650914153
165,alugan,12.2188,125.4808,81.43,85,100,13.47,PH,1650914450
166,college,64.8569,-147.8028,46.35,54,75,4.61,US,1650914090
167,puerto ayora,-0.7393,-90.3518,76.96,78,84,11.07,EC,1650914153
168,victor harbor,-35.5667,138.6167,61.68,72,100,5.32,AU,1650914258
169,maraa,-1.8333,-65.3667,82.99,85,99,2.3,BR,1650914451
170,hasaki,35.7333,140.8333,63.0,89,100,8.03,JP,1650914266
171,barra do garcas,-15.89,-52.2567,95.58,41,20,4.61,BR,1650914431
172,arona,28.0996,-16.681,64.92,68,40,9.22,ES,1650914452
173,matara,5.9485,80.5353,78.6,87,30,2.62,LK,1650914362
174,hami,42.8,93.45,63.95,31,100,23.06,CN,1650914313
175,port hedland,-20.3167,118.5667,71.65,94,29,8.05,AU,1650914357
176,yarada,17.65,83.2667,82.72,78,20,2.3,IN,1650914453
177,bandarbeyla,9.4942,50.8122,82.29,71,99,7.11,SO,1650914335
178,yerbogachen,61.2767,108.0108,21.76,99,88,2.68,RU,1650914337
179,kruisfontein,-34.0033,24.7314,56.88,84,4,6.2,ZA,1650914261
180,viedma,-40.8135,-62.9967,63.86,23,100,17.69,AR,1650914454
181,shar,49.5886,81.0453,39.83,60,94,3.83,KZ,1650914454
182,kilindoni,-7.9139,39.6668,82.62,74,38,10.42,TZ,1650914454
183,gold coast,-28.0,153.4333,66.04,87,100,4.61,AU,1650914352
184,severo-kurilsk,50.6789,156.125,31.84,85,100,19.8,RU,1650913987
185,khatanga,71.9667,102.5,-11.27,100,99,3.56,RU,1650914265
186,cap-haitien,19.7578,-72.2042,82.35,61,40,17.27,HT,1650914455
187,lazaro cardenas,17.9583,-102.2,83.48,49,90,10.58,MX,1650914455
188,sterling,39.0062,-77.4286,73.94,64,20,8.05,US,1650914455
189,costinesti,43.95,28.6333,52.84,76,13,9.75,RO,1650914456
190,baruun-urt,46.6806,113.2792,29.08,72,100,11.83,MN,1650914456
191,upernavik,72.7868,-56.1549,20.71,83,37,1.88,GL,1650914167
192,miri,4.4148,114.0089,77.14,94,40,2.3,MY,1650914457
193,flin flon,54.7682,-101.865,28.24,26,0,6.91,CA,1650914335
194,chama,47.1821,8.4636,51.84,94,100,4.61,CH,1650914457
195,inhambane,-23.865,35.3833,75.18,88,20,0.0,MZ,1650914457
196,noumea,-22.2763,166.4572,73.99,99,99,11.45,NC,1650914363
197,barcelona,41.3888,2.159,67.84,68,0,12.66,ES,1650913960
198,henties bay,-22.116,14.2845,63.09,67,0,7.05,NA,1650914298
199,aklavik,68.2191,-135.0107,32.9,100,100,3.78,CA,1650914458
200,havelock,34.8791,-76.9013,84.16,72,7,11.01,US,1650914458
201,saint-augustin,51.226,-58.6502,39.45,96,100,10.29,CA,1650914459
202,nishihara,26.1842,127.7558,77.05,94,100,14.97,JP,1650914459
203,spirit river,55.7833,-118.8361,57.63,47,60,2.37,CA,1650914397
204,bukama,-9.2,25.85,71.51,93,70,2.1,CD,1650914459
205,oranjemund,-28.55,16.4333,57.25,75,0,18.99,NA,1650914267
206,khawhai,23.3667,93.1167,58.37,84,0,2.98,IN,1650914460
207,mogadouro,41.3403,-6.7119,55.67,55,71,4.68,PT,1650914460
208,nsoko,-27.0333,31.95,65.46,93,91,9.26,SZ,1650914461
209,smirnykh,49.75,142.8333,21.25,89,41,3.89,RU,1650914461
210,dudinka,69.4058,86.1778,1.62,98,100,6.42,RU,1650914461
211,soyo,-6.1349,12.3689,78.58,87,73,9.19,AO,1650914462
212,nome,64.5011,-165.4064,32.16,93,100,4.61,US,1650914100
213,mahebourg,-20.4081,57.7,73.26,69,54,15.97,MU,1650914074
214,port alfred,-33.5906,26.891,61.29,73,27,10.63,ZA,1650914260
215,yumen,40.2833,97.2,52.23,19,100,19.15,CN,1650914462
216,saint-joseph,-21.3667,55.6167,72.21,80,38,14.29,RE,1650914271
217,lebanon,36.2081,-86.2911,76.17,84,75,6.91,US,1650914463
218,mount gambier,-37.8333,140.7667,55.09,78,100,5.1,AU,1650914374
219,vila velha,-20.3297,-40.2925,80.55,76,75,12.66,BR,1650914337
220,tegal,-6.8694,109.1402,79.5,85,100,1.86,ID,1650914463
221,kamogata,34.5333,133.5833,60.67,90,92,3.62,JP,1650914464
222,shaoguan,24.8,113.5833,72.91,95,8,2.01,CN,1650914464
223,tallahassee,30.4383,-84.2807,88.0,52,33,3.0,US,1650914286
224,merauke,-8.4667,140.3333,77.86,87,92,4.34,ID,1650914464
225,bara,10.3744,10.7288,93.63,35,100,12.97,NG,1650914465
226,meadow lake,34.8014,-106.5436,65.32,19,0,4.81,US,1650914465
227,beloha,-25.1667,45.05,77.11,69,100,1.54,MG,1650914465
228,mushie,-3.0167,16.9,79.68,73,100,0.96,CD,1650914466
229,champerico,14.3,-91.9167,93.74,62,6,10.69,GT,1650914319
230,mitsamiouli,-11.3847,43.2844,81.3,77,51,8.41,KM,1650914466
231,totolapan,18.5167,-96.1833,100.92,29,0,6.13,MX,1650914467
232,ingham,42.6,-84.3833,56.82,63,100,10.36,US,1650914467
233,east wenatchee bench,47.4257,-120.2812,62.46,50,75,5.75,US,1650914467
234,port hardy,50.6996,-127.4199,45.86,81,100,10.56,CA,1650914081
235,faanui,-16.4833,-151.75,81.25,72,6,8.08,PF,1650914308
236,biak,-0.9131,122.8766,76.68,84,77,2.95,ID,1650914468
237,genoa,44.4129,8.9573,59.09,85,40,14.97,IT,1650914197
238,mattru,7.6244,-11.8332,82.02,72,100,8.14,SL,1650914468
239,goderich,43.7501,-81.7165,52.12,82,100,5.75,CA,1650914469
240,yagodnoye,62.55,149.6667,-0.78,99,99,4.76,RU,1650914469
241,umea,63.8284,20.2597,42.73,75,40,8.05,SE,1650914161
242,portree,57.4129,-6.1942,46.53,78,96,7.67,GB,1650914469
243,ulladulla,-35.35,150.4667,55.76,91,100,5.1,AU,1650914470
244,coruripe,-10.1256,-36.1756,81.63,70,62,13.13,BR,1650914396
245,calvinia,-31.4707,19.776,54.32,38,0,4.36,ZA,1650914371
246,tapa,59.2606,25.9586,36.88,95,32,1.97,EE,1650914470
247,abha,18.2164,42.5053,64.22,72,40,3.44,SA,1650914471
248,richards bay,-28.783,32.0377,67.62,80,100,17.07,ZA,1650914471
249,bengkulu,-3.8004,102.2655,76.6,88,100,6.82,ID,1650914168
250,san policarpo,12.1791,125.5072,81.97,84,100,14.54,PH,1650914472
251,isla aguada,18.7833,-91.4667,91.44,63,0,4.09,MX,1650914472
252,quijingue,-10.7525,-39.2092,87.28,36,28,12.33,BR,1650914472
253,san quintin,30.4833,-115.95,75.52,29,0,8.97,MX,1650914342
254,opuwo,-18.0607,13.84,71.94,34,2,7.02,NA,1650914473
255,marystown,47.1666,-55.1483,46.02,74,60,21.52,CA,1650914473
256,vila franca do campo,37.7167,-25.4333,61.21,70,9,11.54,PT,1650914249
257,hurghada,27.2574,33.8129,78.33,42,0,9.28,EG,1650914360
258,chapais,49.7834,-74.8492,40.78,96,100,10.33,CA,1650914371
259,cayenne,4.9333,-52.3333,84.09,1,78,4.61,GF,1650914300
260,dingle,10.9995,122.6711,78.13,88,25,7.05,PH,1650914314
261,ludus,46.4833,24.1,55.99,72,75,3.44,RO,1650914474
262,krasnoselkup,65.7,82.4667,-3.17,99,25,4.97,RU,1650914321
263,san ignacio,17.1561,-89.0714,91.89,45,51,8.46,BZ,1650914323
264,cleveland,41.4995,-81.6954,67.19,92,100,23.02,US,1650914373
265,huilong,31.8111,121.655,68.94,98,100,9.66,CN,1650914475
266,iqaluit,63.7506,-68.5145,4.73,78,100,29.93,CA,1650914258
267,kargil,34.5667,76.1,35.76,84,100,4.25,IN,1650914475
268,taraza,7.5836,-75.4007,88.63,61,99,4.52,CO,1650914475
269,ballina,-28.8667,153.5667,59.02,99,100,5.23,AU,1650914263
270,hobyo,5.3505,48.5268,83.77,72,11,11.86,SO,1650914017
271,pauini,-7.7136,-66.9764,83.03,80,100,1.66,BR,1650914476
272,narsaq,60.9167,-46.05,44.82,78,100,1.03,GL,1650914298
273,longyearbyen,78.2186,15.6401,4.84,56,40,16.11,SJ,1650914375
274,touros,-5.1989,-35.4608,83.19,69,45,13.24,BR,1650914367
275,bagotville,-28.9833,153.4167,58.86,99,100,3.42,AU,1650914476
276,kuruman,-27.4524,23.4325,50.0,32,0,9.6,ZA,1650914477
277,opunake,-39.4556,173.8583,59.11,79,86,6.31,NZ,1650914477
278,saint-gilles,43.6766,4.4302,61.68,72,0,11.5,FR,1650914477
279,vestmannaeyjar,63.4427,-20.2734,45.81,84,71,11.32,IS,1650914478
280,sept-iles,50.2001,-66.3821,40.05,89,75,11.5,CA,1650914478
281,puerto madryn,-42.7692,-65.0385,62.83,29,100,25.81,AR,1650914454
282,north auburn,38.9313,-121.0819,75.18,34,0,8.05,US,1650914479
283,beidao,34.5686,105.8933,59.7,59,69,2.24,CN,1650914369
284,puri,19.8,85.85,84.72,91,5,16.62,IN,1650914390
285,saint george,37.1041,-113.5841,74.62,13,0,4.0,US,1650914054
286,lagoa,39.05,-27.9833,57.96,71,7,14.05,PT,1650914022
287,pacific grove,36.6177,-121.9166,69.35,74,20,8.99,US,1650914284
288,houma,29.5958,-90.7195,87.01,66,40,16.11,US,1650914480
289,plettenberg bay,-34.0527,23.3716,56.17,79,0,5.55,ZA,1650914480
290,lata,40.1629,-8.3327,58.82,73,71,3.74,PT,1650914166
291,darnah,32.767,22.6367,63.21,65,97,2.26,LY,1650914480
292,chicama,-7.8447,-79.1469,63.14,66,100,8.57,PE,1650914481
293,san cristobal,7.7669,-72.225,71.78,50,55,5.75,VE,1650914127
294,quatre cocos,-20.2078,57.7625,75.31,71,84,15.86,MU,1650914299
295,ambilobe,-13.2,49.05,73.96,83,97,4.88,MG,1650914342
296,namibe,-15.1961,12.1522,70.97,79,1,6.64,AO,1650914342
297,luanda,-8.8368,13.2343,78.8,78,20,10.36,AO,1650914483
298,aguie,13.506,7.7786,95.94,8,100,4.59,NE,1650914483
299,sulphur springs,33.1385,-95.6011,72.21,56,0,13.8,US,1650914484
300,quelimane,-17.8786,36.8883,78.75,94,20,2.3,MZ,1650914484
301,vadso,70.0744,29.7487,32.88,80,20,12.66,NO,1650914484
302,thompson,55.7435,-97.8558,24.39,53,80,6.44,CA,1650914060
303,tuatapere,-46.1333,167.6833,42.01,88,27,5.48,NZ,1650914284
304,ahipara,-35.1667,173.1667,59.97,84,29,7.58,NZ,1650914304
305,whitianga,-36.8333,175.7,54.12,84,1,4.47,NZ,1650914486
306,novyy urengoy,66.0833,76.6333,5.41,97,93,6.98,RU,1650914487
307,bandundu,-3.3167,17.3667,78.8,76,100,2.62,CD,1650914487
308,sembakung,3.8167,117.25,72.66,99,100,2.15,ID,1650914487
309,dallas,32.7668,-96.7836,69.85,55,100,11.5,US,1650914226
310,manokwari,-0.8667,134.0833,79.75,77,52,3.38,ID,1650914326
311,muriwai beach,-36.8167,174.45,52.93,90,7,3.67,NZ,1650914488
312,lakes entrance,-37.8811,147.981,48.16,93,16,4.63,AU,1650914335
313,kalininsk,51.5,44.4758,55.29,75,100,7.94,RU,1650914488
314,camacupa,-12.0167,17.4833,65.39,67,66,3.33,AO,1650914489
315,aykhal,66.0,111.5,10.17,96,100,3.31,RU,1650914313
316,komsomolskiy,40.4272,71.7189,65.12,63,75,2.3,UZ,1650914328
317,port lincoln,-34.7333,135.8667,64.17,81,100,9.35,AU,1650914118
318,poya,-21.35,165.15,67.86,76,97,7.0,NC,1650914489
319,havre-saint-pierre,50.2334,-63.5986,43.16,75,0,11.5,CA,1650914490
320,matadi,-5.8167,13.45,80.26,83,96,2.19,CD,1650914490
321,pisco,-13.7,-76.2167,70.02,77,0,8.05,PE,1650914290
322,takoradi,4.8845,-1.7554,80.6,87,13,7.16,GH,1650914066
323,ginir,7.1333,40.7,59.31,93,100,4.94,ET,1650914491
324,bubaque,11.2833,-15.8333,78.12,77,15,18.23,GW,1650914491
325,ancud,-41.8697,-73.8203,53.22,92,100,29.84,CL,1650914214
326,bon air,37.5249,-77.5578,88.02,51,64,1.99,US,1650914491
327,sabang,5.8933,95.3214,82.65,77,100,15.84,ID,1650914492
328,urengoy,65.9667,78.3667,2.75,97,58,6.42,RU,1650914492
329,barra da estiva,-13.6261,-41.3269,80.01,38,6,14.14,BR,1650914492
330,umm kaddadah,13.6017,26.6876,85.05,14,100,4.27,SD,1650914279
331,bambous virieux,-20.3428,57.7575,75.45,78,40,11.5,MU,1650914331
332,beringovskiy,63.05,179.3167,27.23,96,100,25.17,RU,1650914380
333,turukhansk,65.8167,87.9833,2.07,95,21,4.9,RU,1650914355
334,toora-khem,52.4675,96.11,20.17,81,14,1.79,RU,1650914493
335,melilla,35.2937,-2.9383,61.18,77,0,3.44,ES,1650914403
336,tchibanga,-2.85,11.0333,74.48,93,100,1.5,GA,1650914494
337,kuliyapitiya,7.4688,80.0401,76.03,94,55,2.68,LK,1650914494
338,sheridan,44.8333,-106.9173,54.91,34,0,8.99,US,1650914494
339,paducah,37.0834,-88.6001,62.82,73,100,6.91,US,1650914413
340,male,4.1748,73.5089,84.52,70,100,2.95,MV,1650914495
341,bumba,2.1833,22.4667,74.73,85,78,3.11,CD,1650914495
342,manaus,-3.1019,-60.025,90.1,58,40,6.91,BR,1650914495
343,popondetta,-8.7537,148.2534,72.19,91,43,3.11,PG,1650914496
344,sechura,-5.5569,-80.8222,79.63,59,22,11.86,PE,1650914496
345,bairiki,1.3292,172.9752,78.8,94,20,0.0,KI,1650914496
346,mogadishu,2.0371,45.3438,83.03,71,5,12.57,SO,1650914155
347,basco,20.4487,121.9702,81.75,85,4,17.16,PH,1650914497
348,marsaxlokk,35.8419,14.5431,65.01,63,20,3.44,MT,1650914497
349,mehamn,71.0357,27.8492,28.31,94,52,15.59,NO,1650914331
350,swan hill,-35.3378,143.5544,57.25,67,100,7.38,AU,1650914484
351,homer,59.6425,-151.5483,40.89,88,100,0.0,US,1650914497
352,nanortalik,60.1432,-45.2371,35.22,90,96,9.1,GL,1650914387
353,vokhma,58.9303,46.7586,42.8,95,100,4.94,RU,1650914498
354,igarka,67.4667,86.5833,-7.11,100,53,3.87,RU,1650914498
355,tagusao,9.1924,117.8141,80.44,83,100,3.33,PH,1650914498
356,yeppoon,-23.1333,150.7333,65.98,82,100,20.51,AU,1650914499
357,kedrovyy,56.1667,91.8167,23.41,95,50,3.65,RU,1650914499
358,nanning,22.8167,108.3167,73.85,90,0,8.37,CN,1650914499
359,ossora,59.2353,163.0719,27.48,95,100,9.73,RU,1650914320
360,gao,16.6362,1.637,88.74,11,0,10.83,ML,1650914500
361,jardim,-21.4803,-56.1381,91.53,41,100,7.36,BR,1650914370
362,garoua,9.3,13.4,88.79,41,52,2.66,CM,1650914501
363,lakatoro,-16.0999,167.4164,78.28,78,100,11.88,VU,1650914502
364,manali,13.1667,80.2667,86.09,86,14,8.41,IN,1650914502
365,hanko,59.8333,22.95,44.15,75,100,16.6,FI,1650914502
366,paita,-5.0892,-81.1144,74.26,71,27,13.69,PE,1650914377
367,tarko-sale,64.9225,77.785,10.4,93,21,9.35,RU,1650914503
368,santa isabel do rio negro,-0.4139,-65.0192,87.71,67,47,4.05,BR,1650913996
369,mamakan,57.8161,114.0028,24.89,87,100,3.29,RU,1650914503
370,linares,-35.85,-71.6,54.95,89,100,3.87,CL,1650914503
371,togur,58.3631,82.8265,34.09,86,80,7.52,RU,1650914504
372,xam nua,20.4197,104.0439,68.14,79,8,3.4,LA,1650914504
373,riberalta,-10.9833,-66.1,91.6,58,75,11.5,BO,1650914504
374,svetlogorsk,52.6333,29.7333,51.57,90,62,6.67,BY,1650914297
375,portland,45.5234,-122.6762,57.9,83,100,5.75,US,1650914193
376,contamana,-7.3333,-75.0167,84.06,66,99,3.76,PE,1650914505
377,spartanburg,34.9496,-81.9321,85.69,46,0,11.5,US,1650914492
378,hofn,64.2539,-15.2082,41.02,87,100,6.91,IS,1650914386
379,freeport,40.6576,-73.5832,60.48,48,100,16.11,US,1650914506
380,port blair,11.6667,92.75,80.64,83,20,2.3,IN,1650914257
381,igdir,39.9237,44.045,64.33,45,40,3.44,TR,1650914506
382,zhezkazgan,47.8043,67.7144,51.71,38,6,5.01,KZ,1650914507
383,tashara,55.5195,83.5094,36.39,72,72,7.02,RU,1650914507
384,sosua,19.7667,-70.5167,87.22,65,20,17.27,DO,1650914507
385,bayan,46.0833,127.4,62.74,65,100,24.72,CN,1650914507
386,ilulissat,69.2167,-51.1,28.42,80,100,0.0,GL,1650913911
387,prince albert,53.2001,-105.7677,33.75,55,20,13.8,CA,1650914452
388,thunder bay,48.4001,-89.3168,36.28,60,75,13.8,CA,1650914497
389,zhanaozen,43.3,52.8,67.12,23,5,10.67,KZ,1650914508
390,fatwa,25.5167,85.3167,80.69,13,0,6.42,IN,1650914508
391,karasjok,69.4719,25.5112,23.31,90,32,4.03,NO,1650914509
392,vao,-22.6667,167.4833,74.8,54,100,21.9,NC,1650914264
393,vitim,59.4511,112.5578,25.77,96,100,5.14,RU,1650914374
394,bethel,41.3712,-73.414,64.65,35,40,11.5,US,1650914166
395,grafton,42.207,-71.6856,66.25,29,0,6.91,US,1650914509
396,sao joao dos patos,-6.495,-43.7022,85.37,55,10,5.82,BR,1650914510
397,mollendo,-17.0231,-72.0147,70.27,75,100,8.97,PE,1650914510
398,gisborne,-38.6533,178.0042,52.27,85,12,3.0,NZ,1650914510
399,kemi,65.8596,24.8228,35.37,93,20,1.14,FI,1650914511
400,matagami,49.7502,-77.6328,50.11,81,100,10.36,CA,1650914334
401,yar-sale,66.8333,70.8333,14.79,96,53,8.37,RU,1650914321
402,gondanglegi,-7.7479,112.0132,75.65,91,100,1.05,ID,1650914511
403,berdigestyakh,62.0989,126.6992,4.35,99,86,0.6,RU,1650914512
404,mezen,65.8522,44.24,33.44,91,100,4.92,RU,1650914512
405,coahuayana,18.7333,-103.6833,88.57,38,12,8.32,MX,1650914513
406,kaeo,-35.1,173.7833,55.33,95,59,4.43,NZ,1650914513
407,boysun,38.2061,67.1986,62.38,51,99,4.18,UZ,1650914513
408,grand gaube,-20.0064,57.6608,73.38,75,63,3.0,MU,1650914021
409,palana,59.1167,159.9667,24.48,91,100,10.71,RU,1650914514
410,cervo,43.6702,-7.4101,57.96,85,89,7.78,ES,1650914514
411,necochea,-38.5473,-58.7368,64.35,38,1,5.79,AR,1650914383
412,faya,18.3851,42.4509,64.51,51,0,4.74,SA,1650914318
413,manacapuru,-3.2997,-60.6206,84.27,74,100,3.53,BR,1650914515
414,boa vista,2.8197,-60.6733,91.38,55,40,4.61,BR,1650914515
415,tecoanapa,16.5167,-98.75,86.27,55,6,11.3,MX,1650914515
416,shubarkuduk,49.1447,56.4872,52.39,36,100,4.88,KZ,1650914515
417,veracruz,19.3333,-96.6667,93.69,35,17,9.84,MX,1650914516
418,provideniya,64.3833,-173.3,23.88,84,78,12.12,RU,1650913895
419,dustlik,40.5247,68.0358,64.09,42,100,4.09,UZ,1650914516
420,richmond,37.5538,-77.4603,86.67,52,75,8.05,US,1650914287
421,coihueco,-36.6167,-71.8333,52.54,87,100,6.91,CL,1650914517
422,norman wells,65.282,-126.8329,41.04,60,75,5.75,CA,1650914322
423,le port,-20.9373,55.2919,73.62,79,10,7.14,RE,1650914353
424,port augusta,-32.5,137.7667,63.25,79,100,4.99,AU,1650914382
425,taksimo,56.3444,114.8794,21.97,80,62,3.94,RU,1650914518
426,lazurne,46.084,32.5295,52.68,78,0,7.74,UA,1650914518
427,keetmanshoop,-26.5833,18.1333,54.52,26,0,4.61,NA,1650914518
428,santa maria,-29.6842,-53.8069,82.78,67,83,12.91,BR,1650914306
429,deputatskiy,69.3,139.9,0.12,99,100,2.39,RU,1650914519
430,mildura,-34.2,142.15,62.56,63,100,4.61,AU,1650914519
431,atambua,-9.1061,124.8925,70.02,75,85,3.62,ID,1650914520
432,rocha,-34.4833,-54.3333,65.82,96,100,3.02,UY,1650914361
433,kavieng,-2.5744,150.7967,80.85,78,97,10.25,PG,1650914165
434,mackenzie,55.2999,-123.1698,50.22,40,75,9.22,CA,1650914520
435,kuytun,54.3419,101.5036,26.08,75,87,4.7,RU,1650914521
436,sedalia,38.7045,-93.2283,55.11,50,0,15.01,US,1650914521
437,geraldton,-28.7667,114.6,68.41,73,100,12.66,AU,1650914325
438,libreville,0.3925,9.4537,80.49,84,83,7.72,GA,1650914521
439,sovetskaya,44.7769,41.1722,59.67,79,15,8.72,RU,1650914522
440,staraya poltavka,50.4772,46.4814,59.5,67,59,10.04,RU,1650914522
441,moron,-34.6534,-58.6198,78.8,77,12,8.75,AR,1650914502
442,lorengau,-2.0226,147.2712,80.28,81,45,5.84,PG,1650914523
443,belaya gora,68.5333,146.4167,-4.04,100,82,2.15,RU,1650914523
444,ivankiv,50.9386,29.8943,53.8,88,94,6.08,UA,1650914523
445,sao filipe,14.8961,-24.4956,77.18,63,2,10.29,CV,1650914314
446,kutiyana,21.6233,69.9817,82.36,54,0,5.79,IN,1650914524
447,oksfjord,70.2396,22.3479,30.38,90,100,13.49,NO,1650914390
448,prince rupert,54.3161,-130.3201,44.29,81,100,17.27,CA,1650914104
449,labrea,-7.2586,-64.7981,89.58,57,47,5.23,BR,1650914524
450,tautira,-17.7333,-149.15,80.51,75,13,9.64,PF,1650914525
451,ngunguru,-35.6167,174.5,58.86,83,4,9.17,NZ,1650914379
452,boyolangu,-8.1181,111.8935,76.05,91,98,1.7,ID,1650914525
453,sioux lookout,50.1001,-91.917,19.47,79,100,12.66,CA,1650914118
454,deep river,46.1001,-77.4995,47.95,99,100,1.21,CA,1650914320
455,erenhot,43.6475,111.9767,37.31,28,0,20.94,CN,1650914526
456,mtama,-10.3,39.3667,73.22,98,97,1.23,TZ,1650914526
457,kisangani,0.5167,25.2,72.66,86,96,1.39,CD,1650914526
458,sosnovo-ozerskoye,52.5249,111.5418,21.65,42,5,6.13,RU,1650914527
459,erzin,36.9559,36.2,65.86,60,0,1.79,TR,1650914527
460,palu,-0.8917,119.8707,75.29,95,100,3.0,ID,1650914527
461,bhagwantnagar,26.2333,80.75,89.49,13,0,4.27,IN,1650914528
462,okato,-39.2,173.8833,58.17,85,54,1.99,NZ,1650914528
463,gorele,41.0308,39.0031,64.35,57,7,5.95,TR,1650914528
464,egvekinot,66.3167,-179.1667,13.77,85,82,9.35,RU,1650914529
465,konstantinovka,49.6167,127.9833,37.42,97,100,15.99,RU,1650914529
466,kirakira,-10.4544,161.9205,79.99,83,100,2.17,SB,1650914282
467,narok,-1.0783,35.8601,59.32,95,100,4.41,KE,1650914529
468,kendari,-3.945,122.4989,74.53,94,10,2.55,ID,1650914530
469,karatau,43.1667,70.4667,51.87,59,100,4.9,KZ,1650914530
470,guerrero negro,27.9769,-114.0611,81.27,23,0,8.3,MX,1650914276
471,esperance,-33.8667,121.9,69.28,42,100,25.21,AU,1650914323
472,bintulu,3.1667,113.0333,75.61,94,20,3.44,MY,1650914374
473,payo,-3.7508,103.6372,73.65,99,100,1.92,ID,1650914254
474,ust-kut,56.7938,105.7672,22.78,98,87,3.06,RU,1650914531
475,haimen,23.1935,116.6142,73.29,92,2,4.32,CN,1650914531
476,fairbanks,64.8378,-147.7164,46.36,55,20,4.61,US,1650914308
477,ternovka,51.678,41.6375,57.96,69,100,6.82,RU,1650914532
478,la tiza,7.75,-80.2833,90.01,99,100,7.9,PA,1650914532
479,marawi,7.9986,124.2928,69.98,92,99,2.59,PH,1650914533
480,cambrils,41.0748,1.0524,62.01,73,0,3.44,ES,1650914533
481,hambantota,6.1241,81.1185,80.87,81,8,2.66,LK,1650914533
482,saint anthony,45.0205,-93.218,38.25,68,100,19.57,US,1650914007
483,lafia,8.4833,8.5167,90.18,45,66,1.01,NG,1650914534
484,namatanai,-3.6667,152.4333,78.4,81,100,4.54,PG,1650914315
485,waipawa,-41.4122,175.5153,49.77,83,91,2.1,NZ,1650914534
486,dogondoutchi,13.6393,4.0287,93.99,8,100,7.18,NE,1650914534
487,farafenni,13.5667,-15.6,102.81,11,0,8.88,GM,1650914535
488,dinajpur,25.6272,88.6386,80.11,63,0,7.67,BD,1650914535
489,cabedelo,-6.9811,-34.8339,84.87,80,87,13.11,BR,1650914535
490,sainte-marie,-20.8968,55.5496,73.56,80,100,10.36,RE,1650914536
491,pangnirtung,66.1451,-65.7125,24.8,86,100,20.71,CA,1650914361
492,stornoway,58.2093,-6.3865,48.16,80,100,14.97,GB,1650914355
493,acara,-1.9608,-48.1967,83.66,78,95,4.61,BR,1650914537
494,portsmouth,50.799,-1.0913,55.0,73,69,1.99,GB,1650914537
495,chuy,-33.6971,-53.4616,65.57,97,100,2.75,UY,1650914300
496,manggar,-2.8833,108.2667,79.88,83,100,2.66,ID,1650914537
497,algiers,36.7525,3.042,58.82,82,0,6.91,DZ,1650914409
498,sorland,67.667,12.6934,35.46,61,100,24.56,NO,1650914538
499,cape canaveral,28.4058,-80.6048,86.07,59,0,10.36,US,1650914462
500,lookan,5.037,120.1027,82.31,78,83,2.08,PH,1650914538
501,surgut,61.25,73.4167,37.58,64,0,4.47,RU,1650914539
502,alice springs,-23.7,133.8833,51.35,100,41,0.0,AU,1650914359
503,nelson bay,-32.7167,152.15,61.0,96,100,4.41,AU,1650914446
504,jiangyou,31.7667,104.7167,67.95,65,71,0.94,CN,1650914539
505,cairns,-16.9167,145.7667,75.07,100,100,4.61,AU,1650914540
506,russell,32.3502,-85.1999,84.96,40,47,4.94,US,1650914540
507,lasa,46.6166,10.7002,50.88,98,100,1.57,IT,1650914265
508,talnakh,69.4865,88.3972,1.2,98,100,4.25,RU,1650914393
509,doka,13.5167,35.7667,93.06,13,13,6.91,SD,1650914540
510,dulce grande,23.0,-102.1667,81.43,9,0,3.18,MX,1650914541
511,awbari,26.5921,12.7805,84.24,10,100,11.07,LY,1650914541
512,salur,18.5333,83.2167,84.99,64,14,2.39,IN,1650914541
513,porto novo,6.4965,2.6036,84.02,81,11,7.56,BJ,1650914542
514,huanren,41.2647,125.3667,51.31,95,2,4.63,CN,1650914542
515,pathein,16.7833,94.7333,79.47,83,2,6.17,MM,1650914543
516,shetpe,44.1667,52.1167,69.22,27,33,3.4,KZ,1650914269
517,usevya,-7.1,31.2333,67.6,96,89,3.2,TZ,1650914543
518,stockbridge,33.5443,-84.2338,85.86,47,8,7.31,US,1650914543
519,tupik,54.4253,119.9327,27.0,73,100,4.94,RU,1650914544
520,ordu,40.9086,37.6845,39.7,56,6,6.82,TR,1650914544
521,puerto narino,-3.7703,-70.3831,82.76,85,97,1.63,CO,1650914544
522,sarh,9.1429,18.3923,85.91,58,20,0.0,TD,1650914545
523,padang,-0.9492,100.3543,77.76,86,100,3.31,ID,1650914378
524,aden,12.7794,45.0367,83.62,79,18,13.53,YE,1650914545
525,umm lajj,25.0213,37.2685,78.6,45,0,6.35,SA,1650914546
526,khandbari,27.3747,87.2039,70.02,47,1,3.74,NP,1650914404
527,henderson,36.0397,-114.9819,79.83,15,0,16.11,US,1650914546
528,bronnoysund,65.4625,12.1997,39.2,65,75,18.41,NO,1650914546
529,rockport,28.0206,-97.0544,86.04,77,75,14.97,US,1650914537
530,buchanan,5.8808,-10.0467,80.6,83,100,10.18,LR,1650914372
531,shizuishan,39.2333,106.7694,49.71,17,0,16.17,CN,1650914547
532,bilma,18.6853,12.9164,96.03,9,0,9.13,NE,1650914547
533,ketchikan,55.3422,-131.6461,46.87,76,100,9.22,US,1650914548
534,sokoni,-6.4333,39.55,82.54,78,27,9.33,TZ,1650914548
535,vanimo,-2.6741,141.3028,77.27,90,99,5.17,PG,1650914161
536,kununurra,-15.7667,128.7333,67.98,88,100,0.0,AU,1650914548
537,chiredzi,-21.05,31.6667,71.73,74,4,4.45,ZW,1650914327
538,riohacha,11.5444,-72.9072,84.99,62,100,8.21,CO,1650914448
539,bakchar,57.0186,82.0711,33.76,84,86,5.57,RU,1650914549
540,wazirganj,28.2167,79.05,87.51,15,20,5.66,IN,1650914549
541,rock springs,41.5875,-109.2029,46.24,48,40,1.01,US,1650914550
542,masuguru,-11.3667,38.4167,73.44,94,98,3.31,TZ,1650914550
543,puerto santander,8.3636,-72.4063,81.81,66,100,2.8,CO,1650914550
544,nyrob,60.733,56.7202,35.38,100,100,2.86,RU,1650914550
545,hajdusamson,47.6,21.7667,55.08,67,0,8.05,HU,1650914551
546,tarboro,35.8968,-77.5358,86.09,37,0,9.22,US,1650914551
547,puerto cabello,10.4731,-68.0125,77.36,91,100,13.06,VE,1650914551
548,waspan,14.7419,-83.9717,83.77,71,45,5.48,NI,1650914552
549,olafsvik,64.8945,-23.7142,45.28,70,98,4.43,IS,1650914319
550,walvis bay,-22.9575,14.5053,61.75,72,0,4.61,NA,1650914313
551,aligudarz,33.4006,49.6949,51.37,74,100,3.15,IR,1650914552
552,ardakan,32.31,54.0175,76.17,32,100,8.81,IR,1650914475
553,pachperwa,27.5167,82.65,82.67,13,0,4.85,IN,1650914553
554,imbituba,-28.24,-48.6703,78.85,64,54,17.38,BR,1650914553
555,alyangula,-13.8483,136.4192,81.19,77,92,4.81,AU,1650914310
556,lae,-6.7221,146.9847,75.18,84,70,6.33,PG,1650914553
557,gobabis,-22.45,18.9667,66.96,39,58,11.3,NA,1650914554
558,vanavara,60.34,102.2797,28.35,97,100,4.36,RU,1650914338
559,roma,43.2128,-75.4557,76.37,35,20,17.27,US,1650914554
560,naron,43.5167,-8.1528,61.65,80,92,1.95,ES,1650914554
